{
  "type": "FeatureCollection",
  "name": "main",
  "crs":
  { "type": "name", "properties":
  { "name": "urn:ogc:def:crs:EPSG::32635" } },
  "features": [
    { "type": "Feature",
      "properties":
      { "id": 1,
        "name": "ТОВ \"Галицька Кабельна Компанія\"",
    "class": "ІV",
    "city": "Львів",
    "street": "вул. Богдана Хмельницького",
    "house_num": "241",
    "class_int": 4},
    "geometry": { "type": "MultiPoint",
      "coordinates": [ [ 288357.3609031488,5528000.327454052 ] ] } },
    { "type": "Feature", "properties": { "id": 2, "name": "ТОВ "МІГ"", "class": "ІV", "city": "Львів", "street": "вул. Богдана Хмельницького", "house_num": "176", "class_int": 4},"geometry": { "type": "MultiPoint", "coordinates": [ [ 287956.4124043531,5527308.630701397 ] ] } },{ "type": "Feature", "properties": { "id": 3, "name": "ПП "Корбіз"", "class": "ІV", "city": "Львів", "street": "вул. В. Великого", "house_num": "18/901", "class_int": 4},"geometry": { "type": "MultiPoint", "coordinates": [ [ 286150.17032265617,5525576.180437382 ] ] } },{ "type": "Feature", "properties": { "id": 4, "name": "ПП "НВПП "Спаринг-Віст Центр"", "class": "ІV", "city": "Львів", "street": "вул. В. Великого", "house_num": "33", "class_int": 4},"geometry": { "type": "MultiPoint", "coordinates": [ [ 286150.17032265617,5525576.180437382 ] ] } },{ "type": "Feature", "properties": { "id": 5, "name": "ПП Компанія з утилізації відходів "Укрекокомресурси"", "class": "ІV", "city": "Львів", "street": "вул. Водогінна", "house_num": "5/421", "class_int": 4},"geometry": { "type": "MultiPoint", "coordinates": [ [ 287484.01340120856,5523757.723964963 ] ] } },{ "type": "Feature", "properties": { "id": 6, "name": "ТОВ "Спецавтотранс Львів"", "class": "ІV", "city": "Львів", "street": "вул. Водогінна", "house_num": "2", "class_int": 4},"geometry": { "type": "MultiPoint", "coordinates": [ [ 287455.9264362587,5523652.878028988 ] ] } },{ "type": "Feature", "properties": { "id": 7, "name": "ТОВ "АВЕ Львів"", "class": "ІV", "city": "Львів", "street": "вул. Волинська", "house_num": "9", "class_int": 4},"geometry": { "type": "MultiPoint", "coordinates": [ [ 287467.9206767833,5526720.393865826 ] ] } },{ "type": "Feature", "properties": { "id": 8, "name": "ТОВ НВП "Гетьман"", "class": "ІV", "city": "Львів", "street": "вул. Волинська", "house_num": "10А", "class_int": 4},"geometry": { "type": "MultiPoint", "coordinates": [ [ 287474.03931869636,5526741.494969126 ] ] } },{ "type": "Feature", "properties": { "id": 9, "name": "ТОВ "Львіввторресурс"", "class": "ІV", "city": "Львів", "street": "вул. Гайдучка", "house_num": "5", "class_int": 4},"geometry": { "type": "MultiPoint", "coordinates": [ [ 290218.45358760294,5526340.3210341865 ] ] } },{ "type": "Feature", "properties": { "id": 10, "name": "ТОВ " Спецавтотранс "", "class": "ІV", "city": "Львів-Винники", "street": "вул. Галицька", "house_num": "54А", "class_int": 4},"geometry": { "type": "MultiPoint", "coordinates": [ [ 294815.30497919326,5522242.24432962 ] ] } },{ "type": "Feature", "properties": { "id": 11, "name": "КЗ ЛОР "Львівський онкологічний регіональний лікувально- діагностичний центр"", "class": "ІV", "city": "Львів", "street": "вул. Гашека", "house_num": "2а", "class_int": 4},"geometry": { "type": "MultiPoint", "coordinates": [ [ 286150.17032265617,5525576.180437382 ] ] } },{ "type": "Feature", "properties": { "id": 12, "name": "ТОВ "Технопарк ЛЗТА"", "class": "ІV", "city": "Львів", "street": "вул. Героїв УПА", "house_num": "72", "class_int": 4},"geometry": { "type": "MultiPoint", "coordinates": [ [ 284049.6969579811,5524198.565522271 ] ] } },{ "type": "Feature", "properties": { "id": 13, "name": "ТОВ "УКРА-АБВ"", "class": "ІІ", "city": "Львів", "street": "вул. Городницька", "house_num": "49а", "class_int": 2},"geometry": { "type": "MultiPoint", "coordinates": [ [ 287209.05427657976,5527574.278631947 ] ] } },{ "type": "Feature", "properties": { "id": 14, "name": "ТОВ "Компанія Дністер"", "class": "ІV", "city": "Львів", "street": "вул. Городоцька", "house_num": "367", "class_int": 4},"geometry": { "type": "MultiPoint", "coordinates": [ [ 281483.7678231555,5524084.631954171 ] ] } },{ "type": "Feature", "properties": { "id": 15, "name": "ТОВ "Львіввтормет"", "class": "ІV", "city": "Львів", "street": "вул. Грунтова", "house_num": "5", "class_int": 4},"geometry": { "type": "MultiPoint", "coordinates": [ [ 289428.70992046734,5518776.210347583 ] ] } },{ "type": "Feature", "properties": { "id": 16, "name": "ТОВ "Львівський бетон"", "class": "ІV", "city": "Львів", "street": "вул. Грунтова", "house_num": "1", "class_int": 4},"geometry": { "type": "MultiPoint", "coordinates": [ [ 289496.670874863,5518706.679009028 ] ] } },{ "type": "Feature", "properties": { "id": 17, "name": "Науково-технічне приватне підприємство "Галекоресурс"", "class": "І", "city": "Львів", "street": "вул. Данила Апостола", "house_num": "7", "class_int": 1},"geometry": { "type": "MultiPoint", "coordinates": [ [ 280495.68867500214,5524384.3579812655 ] ] } },{ "type": "Feature", "properties": { "id": 18, "name": "ТОВ "СЕЙФ ГЛАСС ФАКТОРІ"", "class": "ІV", "city": "Львів", "street": "вул. Джерельна", "house_num": "38", "class_int": 4},"geometry": { "type": "MultiPoint", "coordinates": [ [ 285787.55356184475,5526534.156511989 ] ] } },{ "type": "Feature", "properties": { "id": 19, "name": "ЛКП ТФ "Львівспецкомунтранс"", "class": "ІV", "city": "Львів", "street": "вул. Жовківська", "house_num": "18", "class_int": 4},"geometry": { "type": "MultiPoint", "coordinates": [ [ 286979.57630202745,5526905.712774308 ] ] } },{ "type": "Feature", "properties": { "id": 20, "name": "ТОВ ТВФ "Ремонтник"", "class": "ІV", "city": "Львів", "street": "вул. Жовківська", "house_num": "15", "class_int": 4},"geometry": { "type": "MultiPoint", "coordinates": [ [ 286781.8156733726,5526610.884532075 ] ] } },{ "type": "Feature", "properties": { "id": 21, "name": "ДП "Львівтрансспецбуд"", "class": "ІV", "city": "Львів", "street": "вул. Зелена", "house_num": "269А", "class_int": 4},"geometry": { "type": "MultiPoint", "coordinates": [ [ 289083.81513479794,5520844.760568052 ] ] } },{ "type": "Feature", "properties": { "id": 22, "name": "ПП "Лінія"", "class": "ІV", "city": "Львів", "street": "вул. Зелена", "house_num": "105", "class_int": 4},"geometry": { "type": "MultiPoint", "coordinates": [ [ 287843.94539475394,5523283.923456793 ] ] } },{ "type": "Feature", "properties": { "id": 23, "name": "ПП "Львівська екологічна компанія"", "class": "ІV", "city": "Львів", "street": "вул. Зелена", "house_num": "162", "class_int": 4},"geometry": { "type": "MultiPoint", "coordinates": [ [ 288520.7955171283,5522480.937975735 ] ] } },{ "type": "Feature", "properties": { "id": 24, "name": "ТОВ "Львівський монтажно-заготівельний завод"", "class": "ІV", "city": "Львів", "street": "вул. Зелена", "house_num": "131", "class_int": 4},"geometry": { "type": "MultiPoint", "coordinates": [ [ 288508.9469643362,5522499.859597256 ] ] } },{ "type": "Feature", "properties": { "id": 25, "name": "Fujikura Automotive Europe AT", "class": "ІV", "city": "Львів", "street": "вул. Й. Сліпого", "house_num": "13", "class_int": 4},"geometry": { "type": "MultiPoint", "coordinates": [ [ 286150.17032265617,5525576.180437382 ] ] } },{ "type": "Feature", "properties": { "id": 26, "name": "КЗ ЛОР ’’ЛЬВІВСЬКИЙ ОБЛАСНИЙ ЦЕНТР ЕКСТРЕНОЇ МЕДИЧНОЇ ДОПОМОГИ ТА МЕДИЦИНИ КАТАСТРОФ ’’", "class": "ІV", "city": "Львів", "street": "вул. І. Миколайчука", "house_num": "9", "class_int": 4},"geometry": { "type": "MultiPoint", "coordinates": [ [ 287415.3532970347,5528962.999620535 ] ] } },{ "type": "Feature", "properties": { "id": 27, "name": "ВАТ "Львіввторресурси"", "class": "ІV", "city": "Львів", "street": "вул. Ковельська", "house_num": "73", "class_int": 4},"geometry": { "type": "MultiPoint", "coordinates": [ [ 288840.93030763476,5527567.273667832 ] ] } },{ "type": "Feature", "properties": { "id": 28, "name": "ТОВ "ТК"Сенс"", "class": "ІV", "city": "Львів", "street": "вул. Ковельська", "house_num": "109А", "class_int": 4},"geometry": { "type": "MultiPoint", "coordinates": [ [ 288940.66993237275,5528128.14192127 ] ] } },{ "type": "Feature", "properties": { "id": 29, "name": "Львівська ТЕЦ-1", "class": "І", "city": "Львів", "street": "вул. Козельницька", "house_num": "5", "class_int": 1},"geometry": { "type": "MultiPoint", "coordinates": [ [ 286026.05210784206,5522250.237180408 ] ] } },{ "type": "Feature", "properties": { "id": 30, "name": "ПрАТ "Львівське спеціалізоване будівельно-монтажне управління №1"", "class": "ІV", "city": "Львів", "street": "вул. Конюшинна", "house_num": "14", "class_int": 4},"geometry": { "type": "MultiPoint", "coordinates": [ [ 279212.3536784251,5524105.725699553 ] ] } },{ "type": "Feature", "properties": { "id": 31, "name": "ПрАТ "Львівський лікеро-горілчаний завод"", "class": "ІV", "city": "Львів", "street": "вул. Кордуби", "house_num": "2", "class_int": 4},"geometry": { "type": "MultiPoint", "coordinates": [ [ 287688.3651191956,5526185.015662275 ] ] } },{ "type": "Feature", "properties": { "id": 32, "name": "ПП "Чорний"", "class": "ІV", "city": "Львів", "street": "вул. Куліша", "house_num": "45/15", "class_int": 4},"geometry": { "type": "MultiPoint", "coordinates": [ [ 284934.5751855513,5518617.0841576895 ] ] } },{ "type": "Feature", "properties": { "id": 33, "name": "Кіт Олена Костянтинівна ФОТ", "class": "ІV", "city": "Львів", "street": "вул. Лебедина", "house_num": "7", "class_int": 4},"geometry": { "type": "MultiPoint", "coordinates": [ [ 290248.65714964946,5524783.699501292 ] ] } },{ "type": "Feature", "properties": { "id": 34, "name": "Міський комунальний клінічний пологовий будинок №1", "class": "ІV", "city": "Львів", "street": "вул. Мечнікова", "house_num": "8", "class_int": 4},"geometry": { "type": "MultiPoint", "coordinates": [ [ 288149.4849432042,5524606.391957151 ] ] } },{ "type": "Feature", "properties": { "id": 35, "name": "ЛКТВП "ВДМ"", "class": "ІV", "city": "Львів", "street": "вул. Миколайчука", "house_num": "9", "class_int": 4},"geometry": { "type": "MultiPoint", "coordinates": [ [ 287415.3532970347,5528962.999620535 ] ] } },{ "type": "Feature", "properties": { "id": 36, "name": "ТОВ "Верхній Замок"", "class": "ІV", "city": "Львів", "street": "вул. Огіркова", "house_num": "2", "class_int": 4},"geometry": { "type": "MultiPoint", "coordinates": [ [ 286754.46757542295,5526369.270719117 ] ] } },{ "type": "Feature", "properties": { "id": 37, "name": "ТОВ "Львіввторкольормет"", "class": "ІV", "city": "Львів", "street": "вул. Озаркевича", "house_num": "8", "class_int": 4},"geometry": { "type": "MultiPoint", "coordinates": [ [ 285161.724362671,5524915.081035314 ] ] } },{ "type": "Feature", "properties": { "id": 38, "name": "Львівське КП "Зелений Львів"", "class": "І", "city": "Львів", "street": "вул. Окружна", "house_num": "56", "class_int": 1},"geometry": { "type": "MultiPoint", "coordinates": [ [ 283063.12648103654,5523724.615298077 ] ] } },{ "type": "Feature", "properties": { "id": 39, "name": "КП ЛОР Львівська станція швидкої медичної допомоги", "class": "ІV", "city": "Львів", "street": "вул. П. Орлика", "house_num": "6", "class_int": 4},"geometry": { "type": "MultiPoint", "coordinates": [ [ 288187.01066942373,5522275.681477 ] ] } },{ "type": "Feature", "properties": { "id": 40, "name": "СП ТОВ "КОМ-ЕКО-Львів"", "class": "ІV", "city": "Львів", "street": "вул. Пасіки Галицькі", "house_num": "7", "class_int": 4},"geometry": { "type": "MultiPoint", "coordinates": [ [ 288903.9438013745,5522428.353594939 ] ] } },{ "type": "Feature", "properties": { "id": 41, "name": "ТОВ "ДВ-Екосвіт"", "class": "ІV", "city": "Львів", "street": "вул. Пасічна", "house_num": "127", "class_int": 4},"geometry": { "type": "MultiPoint", "coordinates": [ [ 289210.16679945786,5521321.895337103 ] ] } },{ "type": "Feature", "properties": { "id": 42, "name": "ПП "Меліка"", "class": "ІV", "city": "Львів", "street": "вул. Патона", "house_num": "22", "class_int": 4},"geometry": { "type": "MultiPoint", "coordinates": [ [ 286150.17032265617,5525576.180437382 ] ] } },{ "type": "Feature", "properties": { "id": 43, "name": "Львівське обласне патологоанатомічне бюро", "class": "ІV", "city": "Львів", "street": "вул. Пекарська", "house_num": "52", "class_int": 4},"geometry": { "type": "MultiPoint", "coordinates": [ [ 287796.68321138166,5524532.662743714 ] ] } },{ "type": "Feature", "properties": { "id": 44, "name": "ПП "РІАЛ"", "class": "ІІ", "city": "Львів", "street": "вул. Північна", "house_num": "1", "class_int": 2},"geometry": { "type": "MultiPoint", "coordinates": [ [ 279057.6608904124,5524668.127615803 ] ] } },{ "type": "Feature", "properties": { "id": 45, "name": "ПП "Астро"", "class": "ІV", "city": "Львів", "street": "вул. Пластова", "house_num": "6", "class_int": 4},"geometry": { "type": "MultiPoint", "coordinates": [ [ 289620.9667001716,5527254.929662886 ] ] } },{ "type": "Feature", "properties": { "id": 46, "name": "ТОВ "ЗУАТ Вторкольормет"", "class": "ІV", "city": "Львів", "street": "вул. Пластова", "house_num": "11А", "class_int": 4},"geometry": { "type": "MultiPoint", "coordinates": [ [ 289303.98413418897,5527232.038639953 ] ] } },{ "type": "Feature", "properties": { "id": 47, "name": "Львівська ТЕЦ-2", "class": "І", "city": "Львів", "street": "вул. Пластова", "house_num": "125", "class_int": 1},"geometry": { "type": "MultiPoint", "coordinates": [ [ 289578.034828699,5527257.350418646 ] ] } },{ "type": "Feature", "properties": { "id": 48, "name": "ЛКП "За Замком"", "class": "ІV", "city": "Львів", "street": "вул. Польова", "house_num": "29а", "class_int": 4},"geometry": { "type": "MultiPoint", "coordinates": [ [ 288953.62711204414,5526911.697791249 ] ] } },{ "type": "Feature", "properties": { "id": 49, "name": "ТОВ "ПРОМСНАБ-ЛЬВІВ"", "class": "І", "city": "Львів", "street": "вул. Промислова", "house_num": "50/52", "class_int": 1},"geometry": { "type": "MultiPoint", "coordinates": [ [ 287540.52852427005,5527369.646277275 ] ] } },{ "type": "Feature", "properties": { "id": 50, "name": "ТОВ НВП "МАСТ"", "class": "ІІ", "city": "Львів", "street": "вул. Рудненська", "house_num": "12", "class_int": 2},"geometry": { "type": "MultiPoint", "coordinates": [ [ 281871.28996884264,5524949.549887906 ] ] } },{ "type": "Feature", "properties": { "id": 51, "name": "ТОВ "Західвторлом"", "class": "ІV", "city": "Львів", "street": "вул. Садова", "house_num": "2а", "class_int": 4},"geometry": { "type": "MultiPoint", "coordinates": [ [ 283355.67626562587,5523104.903531506 ] ] } },{ "type": "Feature", "properties": { "id": 52, "name": "ТОВ "Екологічна Панацея"", "class": "ІV", "city": "Львів", "street": "вул. Снопківська", "house_num": "31/10", "class_int": 4},"geometry": { "type": "MultiPoint", "coordinates": [ [ 286855.93980698317,5523530.692216867 ] ] } },{ "type": "Feature", "properties": { "id": 53, "name": "ТОВ "Агротучапи"", "class": "ІV", "city": "Львів", "street": "вул. Стрийська", "house_num": "129", "class_int": 4},"geometry": { "type": "MultiPoint", "coordinates": [ [ 285530.8903634542,5521450.886972122 ] ] } },{ "type": "Feature", "properties": { "id": 54, "name": "ТОВ "Санком-Львів"", "class": "ІV", "city": "Львів", "street": "вул. Чернігівська", "house_num": "14", "class_int": 4},"geometry": { "type": "MultiPoint", "coordinates": [ [ 287569.36849628924,5524956.349082648 ] ] } },{ "type": "Feature", "properties": { "id": 55, "name": "ТОВ "ПЛАСТ-3000"", "class": "ІV", "city": "Львів", "street": "вул. Чигиринська", "house_num": "42", "class_int": 4},"geometry": { "type": "MultiPoint", "coordinates": [ [ 287960.44049303664,5528046.175244972 ] ] } },

    { "type": "Feature",
      "properties": {
        "id": 56,
        "name": "ТОВ "Вторресурси захід"",
        "class": "ІV",
        "city": "Львів",
        "street": "вул. Шевченка",
        "house_num": "313",
        "class_int": 4},
      "geometry": {
        "type": "MultiPoint",
        "coordinates": [ [ 280764.8558918806,5528538.543202176 ] ] } },{


      "type": "Feature",
      "properties": {
        "id": 57,
        "name": "ТОВ "Шульц Утилізатор АГ"",
        "class": "ІV",
        "city": "Львів",
        "street": "вул. Шевченка",
        "house_num": "317",
        "class_int": 4},"geometry": {
        "type": "MultiPoint",
        "coordinates": [ [ 280005.2472011908,5528904.549648417 ] ] } },
    { "type": "Feature", "properties": { "id": 58, "name": "ТОВ "КОМПАНІЯ "Т.К."", "class": "І", "city": "Львів", "street": "вул. Шептицьких", "house_num": "47", "class_int": 1},"geometry": { "type": "MultiPoint", "coordinates": [ [ 294374.69948973873,5520546.155611421 ] ] } },


    { "type": "Feature",
      "properties": {
        "id": 59,
        "name": "ТзДВ "Шляхово ремонтно-будівельне управління №65"",
        "class": "ІV",
        "city": "Львів",
        "street": "проспект Вячеслава Чорновола",
        "house_num": "63",
        "class_int": 4},
      "geometry": {
        "type": "MultiPoint",
        "coordinates": [ [ 285856.4416999209,5527163.255700817 ] ] } }
  ] }